[
  {
    "festival": "san-bernabe-2026",
    "name": "Cañonazo inaugural y salvas de honor",
    "description": "Inicio oficial de las fiestas de San Bernabé",
    "category": "historia",
    "isJunior": false,
    "lat": 42.46512,
    "lng": -2.44700,
    "venueName": "Arco de San Bernabé",
    "startTime": "2026-06-06T11:30:00+02:00",
    "endTime": null,
    "imageUrl": null
  },
  {
    "festival": "san-bernabe-2026",
    "name": "La Uva Fest - Inauguración",
    "description": "La Orquestina Anarco Yeye y Animalversión",
    "category": "musica",
    "isJunior": false,
    "lat": 42.46484,
    "lng": -2.44690,
    "venueName": "Parking del Revellín",
    "startTime": "2026-06-05T20:00:00+02:00",
    "endTime": null,
    "imageUrl": null
  },
  {
    "festival": "san-bernabe-2026",
    "name": "Pregón Junior de San Bernabé",
    "description": "Pregón infantil a cargo de los ludotecas y centros jóvenes",
    "category": "infantil",
    "isJunior": true,
    "lat": 42.46476,
    "lng": -2.44676,
    "venueName": "Murallas del Revellín",
    "startTime": "2026-06-05T18:30:00+02:00",
    "endTime": null,
    "imageUrl": null
  },
  {
    "festival": "san-bernabe-2026",
    "name": "Procesión de San Bernabé",
    "description": "Procesión solemne desde la Concatedral",
    "category": "religioso",
    "isJunior": false,
    "lat": 42.46578,
    "lng": -2.44440,
    "venueName": "Concatedral de la Redonda",
    "startTime": "2026-06-11T12:00:00+02:00",
    "endTime": null,
    "imageUrl": null
  },
  {
    "festival": "san-bernabe-2026",
    "name": "Concierto de Rock en el Revellín",
    "description": null,
    "category": "musica",
    "isJunior": false,
    "lat": 42.46484,
    "lng": -2.44690,
    "venueName": "Parking del Revellín",
    "startTime": "2026-06-06T22:00:00+02:00",
    "endTime": "2026-06-07T01:00:00+02:00",
    "imageUrl": null
  },
  {
    "festival": "san-bernabe-2026",
    "name": "Feria Gastronómica Riojana",
    "description": "Degustación de vinos y productos de La Rioja",
    "category": "gastronomia",
    "isJunior": false,
    "lat": 42.46520,
    "lng": -2.44300,
    "venueName": "Paseo del Espolón",
    "startTime": "2026-06-07T12:00:00+02:00",
    "endTime": "2026-06-07T20:00:00+02:00",
    "imageUrl": null
  },
  {
    "festival": "san-bernabe-2026",
    "name": "Taller de Danzas Riojanas",
    "description": "Aprende las danzas tradicionales de La Rioja",
    "category": "danza",
    "isJunior": false,
    "lat": 42.46512,
    "lng": -2.44313,
    "venueName": "Concha del Espolón",
    "startTime": "2026-06-08T11:00:00+02:00",
    "endTime": "2026-06-08T13:00:00+02:00",
    "imageUrl": null
  },
  {
    "festival": "san-bernabe-2026",
    "name": "Teatro de Calle: Zancos y Acrobacias",
    "description": "Compañía de teatro de calle con espectáculo de zancos",
    "category": "teatro",
    "isJunior": false,
    "lat": 42.46584,
    "lng": -2.44472,
    "venueName": "Plaza del Mercado",
    "startTime": "2026-06-08T19:00:00+02:00",
    "endTime": "2026-06-08T20:00:00+02:00",
    "imageUrl": null
  },
  {
    "festival": "san-bernabe-2026",
    "name": "Mercado Medieval",
    "description": "Mercado artesanal con productos medievales y modernos",
    "category": "mercado",
    "isJunior": false,
    "lat": 42.46602,
    "lng": -2.44492,
    "venueName": "Plaza de la Oca",
    "startTime": "2026-06-07T10:00:00+02:00",
    "endTime": "2026-06-07T21:00:00+02:00",
    "imageUrl": null
  },
  {
    "festival": "san-bernabe-2026",
    "name": "Cuentacuentos Junior",
    "description": "Cuentacuentos para niños de 3 a 8 años",
    "category": "infantil",
    "isJunior": true,
    "lat": 42.46602,
    "lng": -2.44492,
    "venueName": "Plaza de la Oca",
    "startTime": "2026-06-09T11:00:00+02:00",
    "endTime": "2026-06-09T12:00:00+02:00",
    "imageUrl": null
  },
  {
    "festival": "san-bernabe-2026",
    "name": "Visita Guiada: Historia de Logroño",
    "description": "Recorrido histórico por el casco antiguo de Logroño",
    "category": "historia",
    "isJunior": false,
    "lat": 42.46636,
    "lng": -2.44413,
    "venueName": "Plaza Santiago",
    "startTime": "2026-06-10T10:30:00+02:00",
    "endTime": "2026-06-10T12:30:00+02:00",
    "imageUrl": null
  },
  {
    "festival": "san-bernabe-2026",
    "name": "Gran Concierto de Clausura",
    "description": "Concierto final de las fiestas con artistas locales",
    "category": "musica",
    "isJunior": false,
    "lat": 42.46512,
    "lng": -2.44313,
    "venueName": "Concha del Espolón",
    "startTime": "2026-06-12T21:00:00+02:00",
    "endTime": "2026-06-12T23:30:00+02:00",
    "imageUrl": null
  },
  {
    "festival": "san-bernabe-2026",
    "name": "Espectáculo de Fuegos Artificiales",
    "description": "Fuegos artificiales de clausura de las fiestas",
    "category": "otros",
    "isJunior": false,
    "lat": 42.46100,
    "lng": -2.44100,
    "venueName": "Parque del Ebro",
    "startTime": "2026-06-12T23:30:00+02:00",
    "endTime": null,
    "imageUrl": null
  },
  {
    "festival": "san-bernabe-2026",
    "name": "Maratón de Danza Junior",
    "description": "Exhibición de los grupos de danza de los colegios",
    "category": "danza",
    "isJunior": true,
    "lat": 42.46484,
    "lng": -2.44690,
    "venueName": "Parking del Revellín",
    "startTime": "2026-06-11T17:00:00+02:00",
    "endTime": "2026-06-11T19:00:00+02:00",
    "imageUrl": null
  },
  {
    "festival": "san-bernabe-2026",
    "name": "Concierto Jazz en el Espolón",
    "description": "Jazz al aire libre en el Paseo del Espolón",
    "category": "musica",
    "isJunior": false,
    "lat": 42.46520,
    "lng": -2.44300,
    "venueName": "Paseo del Espolón",
    "startTime": "2026-06-09T20:00:00+02:00",
    "endTime": "2026-06-09T22:00:00+02:00",
    "imageUrl": null
  }
]
